city,temperature_2m,temperature_2m_C,dewpoint_temperature_2m,dewpoint_temperature_2m_C,total_precipitation_sum,surface_pressure,pH,TDS,TH,Ca,Mg,DO,BOD,Water_Quality_Prediction,Water_Quality_Risk_Score,Concern_Parameters,Risk_Level,Risk_Score,Map_Color,latitude,longitude,Color_Intensity
Kolkata,292.9855699,19.83556992,287.3382051,14.18820513,0.000255931,101513.7781,7.2,450,180,60,25,6.5,3.2,Good,1,high BOD,Very Low,1,green,22.5726,88.3639,0.25
Delhi,285.6764223,12.52642226,281.2696882,8.119688247,0.027334664,99319.96762,7.8,720,310,95,42,4.8,5.5,Poor,5,high TDS; high total hardness; low dissolved oxygen; high BOD,Moderate,5,orange,28.7041,77.1025,0.6
Mumbai,296.3652821,23.2152821,289.3657064,16.21570639,0.000817198,101241.0913,7.1,530,250,80,35,5.6,4.1,Moderate,2,high TDS; high BOD,Low,2,lightgreen,19.0760,72.8777,0.4
Chennai,,,,,,,8.1,850,360,110,48,4.2,6.2,Poor,7,high TDS; high total hardness; low dissolved oxygen; high BOD; very high BOD,High,7,red,13.0827,80.2707,0.75
Bengaluru,292.8128155,19.66281549,284.3100397,11.1600397,0.000816006,91279.35337,7.4,390,160,55,20,7.1,2.4,Good,0,all major parameters are within low-risk range,Very Low,0,green,12.9716,77.5946,0.25
